Date,Name,Start,End,Duration,Latitude,Longitude,Category,Link
6/26/14,Home,2014-06-26T00:00:00-07:00,2014-06-26T08:25:59-07:00,30359,37.8651493645,-122.282029798,Home,
6/26/14,Place in Lilac Lane,2014-06-26T09:51:40-07:00,2014-06-26T14:45:35-07:00,17635,37.40300648,-122.0855962362,,
6/26/14,Place in Kress Building,2014-06-26T16:19:57-07:00,2014-06-26T17:24:42-07:00,3885,37.8712960974,-122.2685174344,,
6/26/14,Home,2014-06-26T17:33:26-07:00,2014-06-26T19:25:58-07:00,6752,37.8651493645,-122.282029798,Home,
6/26/14,School of Information,2014-06-26T19:33:37-07:00,2014-06-26T19:48:28-07:00,891,37.87135752021174,-122.2584125748343,College Technology Building,http://foursquare.com/venue/4f184661e4b0b34551aaa7cb
6/26/14,Place in Haas Pavilion,2014-06-26T19:54:19-07:00,2014-06-26T21:32:13-07:00,5874,37.8693466448,-122.2620834554,,
6/26/14,Place in Mountain View,2014-06-26T22:32:28-07:00,2014-06-27T00:00:00-07:00,5252,37.4033396014,-122.0854525385,,
