Date,Name,Start,End,Duration,Latitude,Longitude,Category,Link
6/16/14,Home,2014-06-16T00:00:00-07:00,2014-06-16T00:14:31-07:00,871,37.8651493645,-122.282029798,Home,
6/16/14,Home,2014-06-16T01:45:31-07:00,2014-06-16T01:53:06-07:00,455,37.8651493645,-122.282029798,Home,
6/16/14,Place in East Palo Alto,2014-06-16T16:30:04-07:00,2014-06-16T18:08:07-07:00,5883,37.4640609873,-122.1285669556,,
6/16/14,"Place in University of California, Berkeley",2014-06-16T19:12:43-07:00,2014-06-16T19:15:08-07:00,145,37.8675405347,-122.2650438724,,
6/16/14,Recreational Sports Facility (RSF),2014-06-16T19:18:51-07:00,2014-06-16T21:03:27-07:00,6276,37.8686826907337,-122.262618027927,College Gym,http://foursquare.com/venue/4a68deb9f964a52028cb1fe3
6/16/14,Place in Berkeley,2014-06-16T21:15:37-07:00,2014-06-16T21:36:31-07:00,1254,37.8717346586,-122.2731595893,,
6/16/14,Home,2014-06-16T21:39:50-07:00,2014-06-17T00:00:00-07:00,8410,37.8651493645,-122.282029798,Home,
