Date,Name,Start,End,Duration,Latitude,Longitude,Category,Link
6/24/14,Home,2014-06-24T00:04:22-07:00,2014-06-24T08:42:47-07:00,31105,37.8651493645,-122.282029798,Home,
6/24/14,Sutardja Dai Hall - CITRIS Building,2014-06-24T09:04:20-07:00,2014-06-24T10:51:16-07:00,6416,37.87481528371463,-122.2583994269371,College Technology Building,http://foursquare.com/venue/4a68c693f964a520fcca1fe3
6/24/14,"Place in University of California, Berkeley",2014-06-24T10:54:35-07:00,2014-06-24T12:13:38-07:00,4743,37.8729939627,-122.258653389,,
6/24/14,Place in Berkeley,2014-06-24T12:19:06-07:00,2014-06-24T13:09:33-07:00,3027,37.8736376027,-122.2687092934,,
6/24/14,Home,2014-06-24T13:16:51-07:00,2014-06-24T19:54:29-07:00,23858,37.8651493645,-122.282029798,Home,
6/24/14,Place in Mountain View,2014-06-24T20:44:10-07:00,2014-06-24T21:05:40-07:00,1290,37.4032050638,-122.0791090625,,
6/24/14,Place in Mountain View,2014-06-24T21:15:01-07:00,2014-06-25T00:00:00-07:00,9899,37.4033396014,-122.0854525385,,
